[{"id":"701239cb-5319-4d2e-92c1-129ab0b3b440","name":"Bi\u00e8re de la Plaine","brewery_type":"micro","address_1":"Moscow. Kidding!","address_2":null,"address_3":null,"city":"Marseille","state_province":"Bouche du Rh\u00f4ne","postal_code":"13006","country":"France","longitude":5.38767154,"latitude":43.29366192,"phone":"491473254","website_url":"https:\/\/brasseriedelaplaine.fr\/","state":"Bouche du Rh\u00f4ne","street":"16 Rue Saint Pierre"},{"id":"ac41870a-13d1-446c-80e4-6cb4570f5fbb","name":"La Minotte","brewery_type":"micro","address_1":"14 Blvd de l'Europe","address_2":null,"address_3":null,"city":"Vitrolles","state_province":"Bouche du Rh\u00f4ne","postal_code":"13127","country":"France","longitude":5.24158474,"latitude":43.43965026,"phone":"465948644","website_url":"https:\/\/www.minot-brasserie.fr\/","state":"Bouche du Rh\u00f4ne","street":"14 Blvd de l'Europe"},{"id":"b636a9f8-4caa-41e2-996a-5707a9cbd220","name":"Zouma\u00ef","brewery_type":"micro","address_1":"7 Cours Gouff\u00e9","address_2":null,"address_3":null,"city":"Marseille","state_province":"Bouche du Rh\u00f4ne","postal_code":"13005","country":"France","longitude":5.38658404,"latitude":43.28642888,"phone":"953870379","website_url":"https:\/\/www.brasseriezoumai.fr\/","state":"Bouche du Rh\u00f4ne","street":"7 Cours Gouff\u00e9"}]